id,lng,lat,name,outlet_id
1,-14.36201,65.50253,Lagarfljot River at Lagarfoss,1
2,-15.0883,64.9839,Jokulsa I River at Fljotsdal Holl,1
3,-14.533,65.14,Gringa Dam,1
4,-14.481,65.328,Route 1 over Ranga,1
5,-15.186,64.735,Lake Sauoarvatr outlet,1
